[
  {
      "id": 1182,
      "name": "Woods Cervecer√É\u00ada",
      "brewery_type": "brewpub",
      "street": "3801 18th St",
      "city": "San Francisco",
      "state": "California",
      "postal_code": "94114-2615",
      "country": "United States",
      "longitude": "-122.4285438",
      "latitude": "37.761163",
      "phone": "4152739295",
      "website_url": "http://www.cerveceriasf.com",
      "updated_at": "2018-08-24T00:05:03.005Z",
      "tag_list": []
  },
  {
      "id": 354,
      "name": "Beach Chalet Brewing Co",
      "brewery_type": "brewpub",
      "street": "1000 Great Hwy",
      "city": "San Francisco",
      "state": "California",
      "postal_code": "94121-3268",
      "country": "United States",
      "longitude": "-122.502981",
      "latitude": "37.7252994",
      "phone": "4153868439",
      "website_url": "http://www.beachchalet.com",
      "updated_at": "2018-08-23T23:25:04.285Z",
      "tag_list": []
  },
  {
      "id": 271,
      "name": "21st Amendment Brewery Cafe",
      "brewery_type": "brewpub",
      "street": "563 2nd St",
      "city": "San Francisco",
      "state": "California",
      "postal_code": "94107-1411",
      "country": "United States",
      "longitude": "-122.3925769",
      "latitude": "37.782448",
      "phone": "4153690900",
      "website_url": "http://www.21st-amendment.com",
      "updated_at": "2018-08-23T23:23:46.486Z",
      "tag_list": []
  },
  {
      "id": 277,
      "name": "47 Hills Brewing Co",
      "brewery_type": "brewpub",
      "street": "137 S Linden Ave",
      "city": "South San Francisco",
      "state": "California",
      "postal_code": "94080-6410",
      "country": "United States",
      "longitude": "-122.413616770068",
      "latitude": "37.64425595",
      "phone": "6508678476",
      "website_url": "http://47hillsbrewingcompany.com",
      "updated_at": "2018-08-23T23:23:51.427Z",
      "tag_list": []
  },
  {
      "id": 348,
      "name": "Barrel Head Brewhouse",
      "brewery_type": "brewpub",
      "street": "1785 Fulton St",
      "city": "San Francisco",
      "state": "California",
      "postal_code": "94117-1202",
      "country": "United States",
      "longitude": "-122.446103285714",
      "latitude": "37.7757651428571",
      "phone": "4154166989",
      "website_url": "http://www.barrelheadsf.com",
      "updated_at": "2018-08-23T23:24:58.559Z",
      "tag_list": []
  },
  {
      "id": 350,
      "name": "Bartlett Hall",
      "brewery_type": "brewpub",
      "street": "242 Ofarrell St",
      "city": "San Francisco",
      "state": "California",
      "postal_code": "94102-2119",
      "country": "United States",
      "longitude": "-122.40872925",
      "latitude": "37.786406375",
      "phone": "4154334332",
      "website_url": "http://www.bartletthall.com",
      "updated_at": "2018-08-23T23:25:00.369Z",
      "tag_list": []
  },
  {
      "id": 656,
      "name": "Hardwood Bar and Smokery",
      "brewery_type": "brewpub",
      "street": "680 8th St Ste 170",
      "city": "San Francisco",
      "state": "California",
      "postal_code": "94103",
      "country": "United States",
      "longitude": null,
      "latitude": null,
      "phone": "4157962437",
      "website_url": "http://www.hardwoodsf.com",
      "updated_at": "2018-08-11T21:36:05.741Z",
      "tag_list": []
  },
  {
      "id": 752,
      "name": "K-Oz Restaurant Brewery",
      "brewery_type": "brewpub",
      "street": "121 7th St",
      "city": "San Francisco",
      "state": "California",
      "postal_code": "94103-2835",
      "country": "United States",
      "longitude": "-122.409904",
      "latitude": "37.7786408",
      "phone": "4158729431",
      "website_url": "http://www.kandoz.com",
      "updated_at": "2018-08-23T23:58:37.200Z",
      "tag_list": []
  },
  {
      "id": 803,
      "name": "Magnolia Brewing Company",
      "brewery_type": "brewpub",
      "street": "1398 Haight St",
      "city": "San Francisco",
      "state": "California",
      "postal_code": "94117-2909",
      "country": "United States",
      "longitude": "-122.4452044",
      "latitude": "37.7703537",
      "phone": "",
      "website_url": "",
      "updated_at": "2018-08-23T23:59:21.423Z",
      "tag_list": []
  },
  {
      "id": 866,
      "name": "Oda Restaurant",
      "brewery_type": "brewpub",
      "street": "1500 Owens St",
      "city": "San Francisco",
      "state": "California",
      "postal_code": "94158-2334",
      "country": "United States",
      "longitude": "-122.3954096",
      "latitude": "37.7687392",
      "phone": "4155589450",
      "website_url": "http://www.barodasf.com",
      "updated_at": "2018-08-24T00:00:16.620Z",
      "tag_list": []
  },
  {
      "id": 877,
      "name": "Old Bus Tavern",
      "brewery_type": "brewpub",
      "street": "3193 Mission St",
      "city": "San Francisco",
      "state": "California",
      "postal_code": "94110-4515",
      "country": "United States",
      "longitude": "-122.419510285653",
      "latitude": "37.745701",
      "phone": "4158431938",
      "website_url": "http://www.oldbustavern.com",
      "updated_at": "2018-08-24T00:00:26.590Z",
      "tag_list": []
  },
  {
      "id": 1022,
      "name": "Social Kitchen & Brewery",
      "brewery_type": "brewpub",
      "street": "1326 9th Ave",
      "city": "San Francisco",
      "state": "California",
      "postal_code": "94122-2309",
      "country": "United States",
      "longitude": "-122.466066221684",
      "latitude": "37.7635041",
      "phone": "4156810330",
      "website_url": "http://www.socialkitchenandbrewery.com",
      "updated_at": "2018-08-24T00:02:40.313Z",
      "tag_list": []
  },
  {
      "id": 1037,
      "name": "Southern Pacific Brewing",
      "brewery_type": "brewpub",
      "street": "620 Treat Ave",
      "city": "San Francisco",
      "state": "California",
      "postal_code": "94110-2016",
      "country": "United States",
      "longitude": "-122.4139896",
      "latitude": "37.7601311",
      "phone": "4153410152",
      "website_url": "http://www.southernpacificbrewing.com",
      "updated_at": "2018-08-24T00:02:54.123Z",
      "tag_list": []
  },
  {
      "id": 1038,
      "name": "Southpaw BBQ & Southern Cooking",
      "brewery_type": "brewpub",
      "street": "2170 Mission St",
      "city": "San Francisco",
      "state": "California",
      "postal_code": "94110-1247",
      "country": "United States",
      "longitude": "-122.4195306",
      "latitude": "37.7634391",
      "phone": "4159349300",
      "website_url": "http://www.southpawbbqsf.com",
      "updated_at": "2018-08-24T00:02:55.128Z",
      "tag_list": []
  },
  {
      "id": 1071,
      "name": "Sunset Reservoir Brewing Company",
      "brewery_type": "brewpub",
      "street": "1735 Noriega St",
      "city": "San Francisco",
      "state": "California",
      "postal_code": "94122-4307",
      "country": "United States",
      "longitude": "-122.4823594",
      "latitude": "37.7538314",
      "phone": "4155718452",
      "website_url": "http://www.sunsetbeersf.com",
      "updated_at": "2018-08-24T00:03:25.238Z",
      "tag_list": []
  },
  {
      "id": 1112,
      "name": "ThirstyBear Organic Brewery",
      "brewery_type": "brewpub",
      "street": "661 Howard St",
      "city": "San Francisco",
      "state": "California",
      "postal_code": "94105-3915",
      "country": "United States",
      "longitude": "-122.399512",
      "latitude": "37.785543",
      "phone": "4159740905",
      "website_url": "http://www.thirstybear.com",
      "updated_at": "2018-08-24T00:04:00.892Z",
      "tag_list": []
  },
  {
      "id": 1130,
      "name": "Topsy's",
      "brewery_type": "brewpub",
      "street": "260 Kearny St",
      "city": "San Francisco",
      "state": "California",
      "postal_code": "94108-4538",
      "country": "United States",
      "longitude": "-122.403877942857",
      "latitude": "37.7905261428571",
      "phone": "4157570290",
      "website_url": "http://www.topsyssf.com",
      "updated_at": "2018-08-24T00:04:17.524Z",
      "tag_list": []
  },
  {
      "id": 1135,
      "name": "Toy Soldier",
      "brewery_type": "brewpub",
      "street": "52 Belden Pl",
      "city": "San Francisco",
      "state": "California",
      "postal_code": "94104",
      "country": "United States",
      "longitude": "-122.403671041667",
      "latitude": "37.7912978125",
      "phone": "4159069048",
      "website_url": "http://www.toysoldiersf.com",
      "updated_at": "2018-08-24T00:04:21.044Z",
      "tag_list": []
  },
  {
      "id": 385,
      "name": "Black Hammer Brewing",
      "brewery_type": "micro",
      "street": "544 Bryant St",
      "city": "San Francisco",
      "state": "California",
      "postal_code": "94107-1217",
      "country": "United States",
      "longitude": "-122.3969947",
      "latitude": "37.780655",
      "phone": "4155002273",
      "website_url": "http://www.blackhammerbrewing.com",
      "updated_at": "2018-08-23T23:25:33.033Z",
      "tag_list": []
  },
  {
      "id": 804,
      "name": "Magnolia Dogpatch",
      "brewery_type": "micro",
      "street": "2505 3rd St",
      "city": "San Francisco",
      "state": "California",
      "postal_code": "94107-3112",
      "country": "United States",
      "longitude": "-122.3880818",
      "latitude": "37.7577437",
      "phone": "4158647468",
      "website_url": "http://www.magnoliasmokestack.com",
      "updated_at": "2018-08-23T23:59:22.426Z",
      "tag_list": []
  },
  {
      "id": 323,
      "name": "Armstrong Brewing Co",
      "brewery_type": "micro",
      "street": "415 Grand Ave Ste 103",
      "city": "South San Francisco",
      "state": "California",
      "postal_code": "94080-3614",
      "country": "United States",
      "longitude": null,
      "latitude": null,
      "phone": "6509898447",
      "website_url": "http://www.armstrongbrewing.com",
      "updated_at": "2018-08-11T21:35:54.842Z",
      "tag_list": []
  },
  {
      "id": 342,
      "name": "Barebottle Brewing Company",
      "brewery_type": "micro",
      "street": "1525 Cortland Ave",
      "city": "San Francisco",
      "state": "California",
      "postal_code": "94110-5714",
      "country": "United States",
      "longitude": "-122.40904048683",
      "latitude": "37.74000915",
      "phone": "4159268617",
      "website_url": "http://www.barebottlebeer.com",
      "updated_at": "2018-08-23T23:24:53.170Z",
      "tag_list": []
  },
  {
      "id": 389,
      "name": "Black Sands Brewery",
      "brewery_type": "micro",
      "street": "701 Haight St",
      "city": "San Francisco",
      "state": "California",
      "postal_code": "94117-3316",
      "country": "United States",
      "longitude": "-122.433863",
      "latitude": "37.7715719",
      "phone": "4155345194",
      "website_url": "",
      "updated_at": "2018-08-23T23:25:36.178Z",
      "tag_list": []
  },
  {
      "id": 469,
      "name": "Cellarmaker Brewing Company",
      "brewery_type": "micro",
      "street": "1150 Howard St",
      "city": "San Francisco",
      "state": "California",
      "postal_code": "94103-3914",
      "country": "United States",
      "longitude": "-122.4106996",
      "latitude": "37.7771589",
      "phone": "4158633940",
      "website_url": "http://www.cellarmakerbrewing.com",
      "updated_at": "2018-08-23T23:26:34.822Z",
      "tag_list": []
  },
  {
      "id": 591,
      "name": "Ferment.Drink.Repeat",
      "brewery_type": "micro",
      "street": "2636 San Bruno Ave",
      "city": "San Francisco",
      "state": "California",
      "postal_code": "94134-1507",
      "country": "United States",
      "longitude": "-122.403999122449",
      "latitude": "37.7283367755102",
      "phone": "",
      "website_url": "",
      "updated_at": "2018-08-23T23:28:18.211Z",
      "tag_list": []
  },
  {
      "id": 658,
      "name": "Harmonic Brewing",
      "brewery_type": "micro",
      "street": "1050 26th St",
      "city": "San Francisco",
      "state": "California",
      "postal_code": "94107-3513",
      "country": "United States",
      "longitude": "-122.390096163265",
      "latitude": "37.7514996122449",
      "phone": "4158726817",
      "website_url": "http://www.harmonicbrewing.com",
      "updated_at": "2018-08-23T23:29:14.130Z",
      "tag_list": []
  },
  {
      "id": 768,
      "name": "Laughing Monk Brewing",
      "brewery_type": "micro",
      "street": "1439 Egbert Ave Unit A",
      "city": "San Francisco",
      "state": "California",
      "postal_code": "94124-3221",
      "country": "United States",
      "longitude": null,
      "latitude": null,
      "phone": "4158905970",
      "website_url": "http://www.laughingmonkbrewing.com",
      "updated_at": "2018-08-11T21:36:11.499Z",
      "tag_list": []
  },
  {
      "id": 781,
      "name": "Local Brewing Co",
      "brewery_type": "micro",
      "street": "69 Bluxome St",
      "city": "San Francisco",
      "state": "California",
      "postal_code": "94107-1605",
      "country": "United States",
      "longitude": "-122.3973825",
      "latitude": "37.776173",
      "phone": "",
      "website_url": "http://www.localbrewingco.com",
      "updated_at": "2018-08-23T23:59:03.024Z",
      "tag_list": []
  },
  {
      "id": 910,
      "name": "Pine Street Brewery",
      "brewery_type": "micro",
      "street": "",
      "city": "San Francisco",
      "state": "California",
      "postal_code": "94109-4929",
      "country": "United States",
      "longitude": "-122.4192363",
      "latitude": "37.7792808",
      "phone": "4157444062",
      "website_url": "http://www.pinestreetbrewery.com",
      "updated_at": "2018-08-24T00:00:53.850Z",
      "tag_list": []
  },
  {
      "id": 1002,
      "name": "Seven Stills",
      "brewery_type": "micro",
      "street": "1439 Egbert Ave Unit C",
      "city": "San Francisco",
      "state": "California",
      "postal_code": "94124-3221",
      "country": "United States",
      "longitude": null,
      "latitude": null,
      "phone": "4159140936",
      "website_url": "http://www.sevenstillsofsf.com",
      "updated_at": "2018-08-11T21:36:20.577Z",
      "tag_list": []
  },
  {
      "id": 1039,
      "name": "Speakeasy Ales and Lagers",
      "brewery_type": "micro",
      "street": "1195 Evans Ave",
      "city": "San Francisco",
      "state": "California",
      "postal_code": "94124-1704",
      "country": "United States",
      "longitude": "-122.380855673469",
      "latitude": "37.7385453061224",
      "phone": "4156423371",
      "website_url": "http://www.goodbeer.com",
      "updated_at": "2018-08-24T00:02:55.971Z",
      "tag_list": []
  },
  {
      "id": 1046,
      "name": "Standard Deviant Brewing",
      "brewery_type": "micro",
      "street": "280 14th St",
      "city": "San Francisco",
      "state": "California",
      "postal_code": "94103-2420",
      "country": "United States",
      "longitude": "-122.419598352941",
      "latitude": "37.7683792941177",
      "phone": "4155902550",
      "website_url": "http://www.standarddeviantbrewing.com",
      "updated_at": "2018-08-24T00:03:02.434Z",
      "tag_list": []
  },
  {
      "id": 1144,
      "name": "Triple Voodoo Brewing Co",
      "brewery_type": "micro",
      "street": "2245 3rd St",
      "city": "San Francisco",
      "state": "California",
      "postal_code": "94107-3125",
      "country": "United States",
      "longitude": "-122.3884378",
      "latitude": "37.7611618",
      "phone": "4155988811",
      "website_url": "http://www.triplevoodoo.com",
      "updated_at": "2018-08-24T00:04:28.703Z",
      "tag_list": []
  },
  {
    "id": 612,
    "name": "Fort Point Beer Company",
    "brewery_type": "regional",
    "street": "644 Mason St",
    "city": "San Francisco",
    "state": "California",
    "postal_code": "94129-1600",
    "country": "United States",
    "longitude": "-122.410227755102",
    "latitude": "37.789461244898",
    "phone": "4159064021",
    "website_url": "http://www.fortpointbeer.com",
    "updated_at": "2018-08-23T23:28:36.026Z",
    "tag_list": []
}
]